{"meta":{"format":"JSON","version":"1.1.0","projectId":"nextgenkitchens-e9608","resourcePath":["Organizations-v1","CA-BC-Vancouver-FoodRepublic","Restaurants"],"recursive":false,"creationTime":1739495634,"app":"firefoo"},"data":{"3RF1bvmuXn7HXk0cHzrT":{"address":{"addressLine1":"1669 MACGOWAN Ave","addressLine2":"","city":"NORTH VANCOUVER","country":"CA","latitude":49.324684,"longitude":-123.11506,"postCode":"V7P2X3","provinceState":"BC"},"couponIds":[],"cuisines":[],"enabledFeatures":{"delivery":false,"multiLocation":false},"hours":{"fri":[{"end":0,"start":0}],"mon":[{"end":13,"start":8},{"end":20.25,"start":17.5}],"sat":[{"end":21,"start":6}],"sun":[{"end":22,"start":5}],"thu":[{"end":19,"start":7}],"tue":[{"end":22,"start":10}],"wed":[{"end":18,"start":13}]},"id":"3RF1bvmuXn7HXk0cHzrT","images":{"hero":"","logo":""},"isDeleted":false,"isEnabled":true,"isSnoozed":true,"isTest":true,"menus":["DefaultMenu-3RF1bvmuXn7HXk0cHzrT"],"multiIdentifier":"V7P2X3","name":"The Chopped Leaf","phone":"+1 604-609-2467","prepTime":15,"scheduleJump":15,"snoozeUntil":null,"social":{"type":"instagram","url":"robson_choppedleaf"},"storeNumber":"","timezone":"America/Vancouver","__collections__":{}},"3pSt1vNXi2jPjysH66e9":{"address":{"addressLine1":"1669 MACGOWAN Ave","addressLine2":"","city":"NORTH VANCOUVER","country":"CA","latitude":49.324684,"longitude":-123.11506,"postCode":"V7P2X3","provinceState":"BC"},"couponIds":[],"enabledFeatures":{"delivery":false,"multiLocation":false},"hours":{"fri":[{"end":0,"start":0}],"mon":[{"end":13,"start":8},{"end":20.25,"start":17.5}],"sat":[{"end":21,"start":6}],"sun":[{"end":22,"start":5}],"thu":[{"end":19,"start":7}],"tue":[{"end":22,"start":10}],"wed":[{"end":18,"start":13}]},"id":"3pSt1vNXi2jPjysH66e9","isEnabled":true,"isSnoozed":false,"menus":["DefaultMenu-3pSt1vNXi2jPjysH66e9"],"multiIdentifier":"V7P2X3","name":"The Chopped Leaf","phone":"+1 604-609-2467","prepTime":15,"scheduleJump":15,"snoozeUntil":null,"social":{"type":"instagram","url":"robson_choppedleaf"},"timezone":"America/Vancouver","__collections__":{}},"5Ht7t4YVRVFvhtTlSSzW":{"address":{"addressLine1":"1669 MACGOWAN Ave","addressLine2":"","city":"NORTH VANCOUVER","country":"CA","latitude":49.324684,"longitude":-123.11506,"postCode":"V7P2X3","provinceState":"BC"},"couponIds":[],"enabledFeatures":{"delivery":false,"multiLocation":false},"hours":{"fri":[{"end":0,"start":0}],"mon":[{"end":13,"start":8},{"end":20.25,"start":17.5}],"sat":[{"end":21,"start":6}],"sun":[{"end":22,"start":5}],"thu":[{"end":19,"start":7}],"tue":[{"end":22,"start":10}],"wed":[{"end":18,"start":13}]},"id":"5Ht7t4YVRVFvhtTlSSzW","isEnabled":true,"isSnoozed":true,"menus":["DefaultMenu-5Ht7t4YVRVFvhtTlSSzW"],"multiIdentifier":"V7P2X3","name":"The Chopped Leaf","phone":"+1 604-609-2467","prepTime":15,"scheduleJump":15,"snoozeUntil":null,"social":{"type":"instagram","url":"robson_choppedleaf"},"timezone":"America/Vancouver","__collections__":{}},"5KXoicHsuvy8EbyxLFZN":{"address":{"addressLine1":"1669 MACGOWAN Ave","addressLine2":"","city":"NORTH VANCOUVER","country":"CA","latitude":49.324684,"longitude":-123.11506,"postCode":"V7P2X3","provinceState":"BC"},"couponIds":[],"enabledFeatures":{"delivery":false,"multiLocation":false},"hours":{"fri":[{"end":0,"start":0}],"mon":[{"end":13,"start":8},{"end":20.25,"start":17.5}],"sat":[{"end":21,"start":6}],"sun":[{"end":22,"start":5}],"thu":[{"end":19,"start":7}],"tue":[{"end":22,"start":10}],"wed":[{"end":18,"start":13}]},"id":"5KXoicHsuvy8EbyxLFZN","isEnabled":true,"isSnoozed":true,"menus":["DefaultMenu-5KXoicHsuvy8EbyxLFZN"],"multiIdentifier":"V7P2X3","name":"The Chopped Leaf","phone":"+1 604-609-2467","prepTime":15,"scheduleJump":15,"snoozeUntil":null,"social":{"type":"instagram","url":"robson_choppedleaf"},"timezone":"America/Vancouver","__collections__":{}},"66be6c36735a543abb3b0987":{"address":{"addressLine1":"","addressLine2":"","city":"","country":"CA","latitude":0,"longitude":0,"postCode":"","provinceState":"BC"},"couponIds":[],"enabledFeatures":{"delivery":false,"multilocation":false},"foodType":"Burgers","hours":{"fri":[{"end":19,"start":11}],"mon":[{"end":16,"start":11}],"thu":[{"end":17.916666666666668,"start":11}],"tue":[{"end":23,"start":11}],"wed":[{"end":16,"start":11}]},"id":"66be6c36735a543abb3b0987","isDeleted":true,"isEnabled":true,"isSnoozed":false,"menus":["DefaultMenu-66be6c36735a543abb3b0987"],"multiIdentifier":"","name":"Menu","phone":"","prepTime":12,"scheduleJump":15,"snoozeUntil":0,"social":{"type":"instagram","url":""},"timezone":"America/Vancouver","__collections__":{}},"6yTXYNVgmGdxSmComFsc":{"address":{"addressLine1":"1669 MACGOWAN Ave","addressLine2":"","city":"NORTH VANCOUVER","country":"CA","latitude":49.324684,"longitude":-123.11506,"postCode":"V7P2X3","provinceState":"BC"},"couponIds":[],"enabledFeatures":{"delivery":false,"multiLocation":false},"hours":{"fri":[{"end":0,"start":0}],"mon":[{"end":13,"start":8},{"end":20.25,"start":17.5}],"sat":[{"end":21,"start":6}],"sun":[{"end":22,"start":5}],"thu":[{"end":19,"start":7}],"tue":[{"end":22,"start":10}],"wed":[{"end":18,"start":13}]},"id":"6yTXYNVgmGdxSmComFsc","isEnabled":true,"isSnoozed":true,"menus":["DefaultMenu-6yTXYNVgmGdxSmComFsc"],"multiIdentifier":"V7P2X3","name":"The Chopped Leaf","phone":"+1 604-609-2467","prepTime":15,"scheduleJump":15,"snoozeUntil":null,"social":{"type":"instagram","url":"robson_choppedleaf"},"timezone":"America/Vancouver","__collections__":{}},"75KwWMD3D7wgBQs8rfvP":{"address":{"addressLine1":"1669 MACGOWAN Ave","addressLine2":"","city":"NORTH VANCOUVER","country":"CA","latitude":49.324684,"longitude":-123.11506,"postCode":"V7P2X3","provinceState":"BC"},"couponIds":[],"enabledFeatures":{"delivery":false,"multiLocation":false},"hours":{"fri":[{"end":0,"start":0}],"mon":[{"end":13,"start":8},{"end":20.25,"start":17.5}],"sat":[{"end":21,"start":6}],"sun":[{"end":22,"start":5}],"thu":[{"end":19,"start":7}],"tue":[{"end":22,"start":10}],"wed":[{"end":18,"start":13}]},"id":"75KwWMD3D7wgBQs8rfvP","isEnabled":true,"isSnoozed":true,"menus":["DefaultMenu-75KwWMD3D7wgBQs8rfvP"],"multiIdentifier":"V7P2X3","name":"The Chopped Leaf","phone":"+1 604-609-2467","prepTime":15,"scheduleJump":15,"snoozeUntil":null,"social":{"type":"instagram","url":"robson_choppedleaf"},"timezone":"America/Vancouver","__collections__":{}},"79cvbxWXmLi0jApsm3mx":{"address":{"addressLine1":"1669 MACGOWAN Ave","addressLine2":"","city":"NORTH VANCOUVER","country":"CA","latitude":49.324684,"longitude":-123.11506,"postCode":"V7P2X3","provinceState":"BC"},"couponIds":[],"enabledFeatures":{"delivery":false,"multiLocation":false},"hours":{"fri":[{"end":0,"start":0}],"mon":[{"end":13,"start":8},{"end":20.25,"start":17.5}],"sat":[{"end":21,"start":6}],"sun":[{"end":22,"start":5}],"thu":[{"end":19,"start":7}],"tue":[{"end":22,"start":10}],"wed":[{"end":18,"start":13}]},"id":"79cvbxWXmLi0jApsm3mx","isEnabled":true,"isSnoozed":true,"menus":["DefaultMenu-79cvbxWXmLi0jApsm3mx"],"multiIdentifier":"V7P2X3","name":"The Chopped Leaf","phone":"+1 604-609-2467","prepTime":15,"scheduleJump":15,"snoozeUntil":null,"social":{"type":"instagram","url":"robson_choppedleaf"},"timezone":"America/Vancouver","__collections__":{}},"8887EswsP7SS8oKv5tgU":{"address":{"addressLine1":"488 Robson St.","addressLine2":"","city":"Vancouver","country":"CA","latitude":"","longitude":"","postCode":"V6B2B7","provinceState":"BC"},"cuisines":["Asian Fusion"],"enabledFeatures":{"delivery":false,"multiLocation":false},"hours":{},"id":"8887EswsP7SS8oKv5tgU","images":{"hero":"","logo":""},"isDeleted":true,"isEnabled":true,"name":"Test","prepTime":12,"social":{"handle":"","type":"","url":""},"storeNumber":"","__collections__":{}},"8Gutu6jfgHtI4H3SAN5R":{"address":{"addressLine1":"1669 MACGOWAN Ave","addressLine2":"","city":"NORTH VANCOUVER","country":"CA","latitude":49.324684,"longitude":-123.11506,"postCode":"V7P2X3","provinceState":"BC"},"couponIds":[],"enabledFeatures":{"delivery":false,"multiLocation":false},"hours":{"fri":[{"end":0,"start":0}],"mon":[{"end":13,"start":8},{"end":20.25,"start":17.5}],"sat":[{"end":21,"start":6}],"sun":[{"end":22,"start":5}],"thu":[{"end":19,"start":7}],"tue":[{"end":22,"start":10}],"wed":[{"end":18,"start":13}]},"id":"8Gutu6jfgHtI4H3SAN5R","isEnabled":true,"isSnoozed":true,"menus":["DefaultMenu-8Gutu6jfgHtI4H3SAN5R"],"multiIdentifier":"V7P2X3","name":"The Chopped Leaf","phone":"+1 604-609-2467","prepTime":15,"scheduleJump":15,"snoozeUntil":null,"social":{"type":"instagram","url":"robson_choppedleaf"},"timezone":"America/Vancouver","__collections__":{}},"ARbzOh0BQ9mGy1DmGg2g":{"address":{"addressLine1":"1669 MACGOWAN Ave","addressLine2":"","city":"NORTH VANCOUVER","country":"CA","latitude":49.324684,"longitude":-123.11506,"postCode":"V7P2X3","provinceState":"BC"},"couponIds":[],"enabledFeatures":{"delivery":false,"multiLocation":false},"hours":{"fri":[{"end":0,"start":0}],"mon":[{"end":13,"start":8},{"end":20.25,"start":17.5}],"sat":[{"end":21,"start":6}],"sun":[{"end":22,"start":5}],"thu":[{"end":19,"start":7}],"tue":[{"end":22,"start":10}],"wed":[{"end":18,"start":13}]},"id":"ARbzOh0BQ9mGy1DmGg2g","isEnabled":true,"isSnoozed":true,"menus":["DefaultMenu-ARbzOh0BQ9mGy1DmGg2g"],"multiIdentifier":"V7P2X3","name":"The Chopped Leaf","phone":"+1 604-609-2467","prepTime":15,"scheduleJump":15,"snoozeUntil":null,"social":{"type":"instagram","url":"robson_choppedleaf"},"timezone":"America/Vancouver","__collections__":{}},"BA0i49pKBJfsBsoUqb2M":{"address":{"addressLine1":"1669 MACGOWAN Ave","addressLine2":"","city":"NORTH VANCOUVER","country":"CA","latitude":49.324684,"longitude":-123.11506,"postCode":"V7P2X3","provinceState":"BC"},"couponIds":[],"enabledFeatures":{"delivery":false,"multiLocation":false},"hours":{"fri":[{"end":0,"start":0}],"mon":[{"end":13,"start":8},{"end":20.25,"start":17.5}],"sat":[{"end":21,"start":6}],"sun":[{"end":22,"start":5}],"thu":[{"end":19,"start":7}],"tue":[{"end":22,"start":10}],"wed":[{"end":18,"start":13}]},"id":"BA0i49pKBJfsBsoUqb2M","isEnabled":true,"isSnoozed":true,"menus":["DefaultMenu-BA0i49pKBJfsBsoUqb2M"],"multiIdentifier":"V7P2X3","name":"The Chopped Leaf","phone":"+1 604-609-2467","prepTime":15,"scheduleJump":15,"snoozeUntil":null,"social":{"type":"instagram","url":"robson_choppedleaf"},"timezone":"America/Vancouver","__collections__":{}},"BtG4rSQ3Rbx1ghINOIG3":{"address":{"addressLine1":"1669 MACGOWAN Ave","addressLine2":"","city":"NORTH VANCOUVER","country":"CA","latitude":49.324684,"longitude":-123.11506,"postCode":"V7P2X3","provinceState":"BC"},"couponIds":[],"enabledFeatures":{"delivery":false,"multiLocation":false},"hours":{"fri":[{"end":0,"start":0}],"mon":[{"end":13,"start":8},{"end":20.25,"start":17.5}],"sat":[{"end":21,"start":6}],"sun":[{"end":22,"start":5}],"thu":[{"end":19,"start":7}],"tue":[{"end":22,"start":10}],"wed":[{"end":18,"start":13}]},"id":"BtG4rSQ3Rbx1ghINOIG3","isEnabled":true,"isSnoozed":true,"menus":["DefaultMenu-BtG4rSQ3Rbx1ghINOIG3"],"multiIdentifier":"V7P2X3","name":"The Chopped Leaf","phone":"+1 604-609-2467","prepTime":15,"scheduleJump":15,"snoozeUntil":null,"social":{"type":"instagram","url":"robson_choppedleaf"},"timezone":"America/Vancouver","__collections__":{}},"C6ZxIbk6E4v2khRHglF9":{"address":{"addressLine1":"1669 MACGOWAN Ave","addressLine2":"","city":"NORTH VANCOUVER","country":"CA","latitude":49.324684,"longitude":-123.11506,"postCode":"V7P2X3","provinceState":"BC"},"couponIds":[],"enabledFeatures":{"delivery":false,"multiLocation":false},"hours":{"fri":[{"end":0,"start":0}],"mon":[{"end":13,"start":8},{"end":20.25,"start":17.5}],"sat":[{"end":21,"start":6}],"sun":[{"end":22,"start":5}],"thu":[{"end":19,"start":7}],"tue":[{"end":22,"start":10}],"wed":[{"end":18,"start":13}]},"id":"C6ZxIbk6E4v2khRHglF9","isEnabled":true,"isSnoozed":true,"menus":["DefaultMenu-C6ZxIbk6E4v2khRHglF9"],"multiIdentifier":"V7P2X3","name":"The Chopped Leaf","phone":"+1 604-609-2467","prepTime":15,"scheduleJump":15,"snoozeUntil":null,"social":{"type":"instagram","url":"robson_choppedleaf"},"timezone":"America/Vancouver","__collections__":{}},"CtkuuWTXwD8AaBg0QVQy":{"address":{"addressLine1":"1669 MACGOWAN Ave","addressLine2":"","city":"NORTH VANCOUVER","country":"CA","latitude":49.324684,"longitude":-123.11506,"postCode":"V7P2X3","provinceState":"BC"},"couponIds":[],"enabledFeatures":{"delivery":false,"multiLocation":false},"hours":{"fri":[{"end":0,"start":0}],"mon":[{"end":13,"start":8},{"end":20.25,"start":17.5}],"sat":[{"end":21,"start":6}],"sun":[{"end":22,"start":5}],"thu":[{"end":19,"start":7}],"tue":[{"end":22,"start":10}],"wed":[{"end":18,"start":13}]},"id":"CtkuuWTXwD8AaBg0QVQy","isEnabled":true,"isSnoozed":true,"menus":["DefaultMenu-CtkuuWTXwD8AaBg0QVQy"],"multiIdentifier":"V7P2X3","name":"The Chopped Leaf","phone":"+1 604-609-2467","prepTime":15,"scheduleJump":15,"snoozeUntil":null,"social":{"type":"instagram","url":"robson_choppedleaf"},"timezone":"America/Vancouver","__collections__":{}},"FfYAlyXAfY2MDtf1o0Bp":{"address":{"addressLine1":"1669 MACGOWAN Ave","addressLine2":"","city":"NORTH VANCOUVER","country":"CA","latitude":49.324684,"longitude":-123.11506,"postCode":"V7P2X3","provinceState":"BC"},"couponIds":[],"enabledFeatures":{"delivery":false,"multiLocation":false},"hours":{"fri":[{"end":0,"start":0}],"mon":[{"end":13,"start":8},{"end":20.25,"start":17.5}],"sat":[{"end":21,"start":6}],"sun":[{"end":22,"start":5}],"thu":[{"end":19,"start":7}],"tue":[{"end":22,"start":10}],"wed":[{"end":18,"start":13}]},"id":"FfYAlyXAfY2MDtf1o0Bp","isEnabled":true,"isSnoozed":true,"menus":["DefaultMenu-FfYAlyXAfY2MDtf1o0Bp"],"multiIdentifier":"V7P2X3","name":"The Chopped Leaf","phone":"+1 604-609-2467","prepTime":15,"scheduleJump":15,"snoozeUntil":null,"social":{"type":"instagram","url":"robson_choppedleaf"},"timezone":"America/Vancouver","__collections__":{}},"J61kWBLyEyuDaQUJ2f5r":{"address":{"addressLine1":"488 Robson Street","addressLine2":"","city":"Vancouver","country":"CA","latitude":49.280178,"longitude":-123.117723,"postCode":"V6B2B7","provinceState":"BC"},"couponIds":[],"enabledFeatures":{"delivery":false,"multiLocation":false},"foodType":"Barbecue Chicken","hours":{"fri":[{"end":19,"start":11}],"mon":[{"end":19,"start":11}],"sat":[{"end":19,"start":11}],"sun":[{"end":19,"start":11}],"thu":[{"end":19,"start":11}],"tue":[{"end":19,"start":11}],"wed":[{"end":19,"start":11}]},"id":"J61kWBLyEyuDaQUJ2f5r","images":{"hero":"https://firebasestorage.googleapis.com/v0/b/nextgenkitchens-e9608.appspot.com/o/images%2Ffoodrepublic%2FChicken_Co_Hero.jpg?alt=media&token=c47d35c9-a541-4b37-9531-a35ef3f95d9d","logo":"https://firebasestorage.googleapis.com/v0/b/nextgenkitchens-e9608.appspot.com/o/images%2FMesa%20de%20trabajo%202-8.png?alt=media&token=1962d70f-d73b-4a00-9be1-747402566f5a"},"isDeleted":true,"isEnabled":true,"isSnoozed":false,"menuItemCategories":[],"menus":["DefaultMenu-J61kWBLyEyuDaQUJ2f5r"],"multiIdentifier":"V6B2B7","name":"Chicken & Co","phone":"","prepTime":5,"scheduleJump":15,"snoozeUntil":-1,"social":{"handle":"radsaladsvancouver","type":"instagram","url":""},"storeNumber":"","timezone":"America/Vancouver","__collections__":{}},"JbEakiNxlsts4XRqJ8ou":{"address":{"addressLine1":"488 Robson St.","addressLine2":"","city":"Vancouver","country":"CA","latitude":"","longitude":"","postCode":"V6B2B7","provinceState":"BC"},"cuisines":["Asian Fusion"],"enabledFeatures":{"delivery":false,"multiLocation":false},"hours":{},"id":"JbEakiNxlsts4XRqJ8ou","images":{"hero":"","logo":""},"isDeleted":true,"isDoordashRegistered":false,"isEnabled":true,"name":"Test 4","phoneNumber":"+16045555555","prepTime":123,"social":{"handle":"","type":"","url":""},"__collections__":{}},"KOZanmnV46WSQq0YKxEE":{"address":{"addressLine1":"1669 MACGOWAN Ave","addressLine2":"","city":"NORTH VANCOUVER","country":"CA","latitude":49.324684,"longitude":-123.11506,"postCode":"V7P2X3","provinceState":"BC"},"couponIds":[],"enabledFeatures":{"delivery":false,"multiLocation":false},"hours":{"fri":[{"end":0,"start":0}],"mon":[{"end":13,"start":8},{"end":20.25,"start":17.5}],"sat":[{"end":21,"start":6}],"sun":[{"end":22,"start":5}],"thu":[{"end":19,"start":7}],"tue":[{"end":22,"start":10}],"wed":[{"end":18,"start":13}]},"id":"KOZanmnV46WSQq0YKxEE","isEnabled":true,"isSnoozed":true,"menus":["DefaultMenu-KOZanmnV46WSQq0YKxEE"],"multiIdentifier":"V7P2X3","name":"The Chopped Leaf","phone":"+1 604-609-2467","prepTime":15,"scheduleJump":15,"snoozeUntil":null,"social":{"type":"instagram","url":"robson_choppedleaf"},"timezone":"America/Vancouver","__collections__":{}},"QUlUfBpRsIF0UwimzzvI":{"address":{"addressLine1":"430 Robson Street","addressLine2":"","city":"Vancouver","country":"CA","latitude":49.27953,"longitude":-123.11733,"postCode":"V6B0H3","provinceState":"BC"},"couponIds":[],"cuisines":["Barbecue","Seafood"],"enabledFeatures":{"delivery":false,"multiLocation":false},"hours":{"fri":[{"end":22,"start":11}],"mon":[{"end":20,"start":11}],"sat":[{"end":22,"start":12}],"sun":[{"end":20,"start":12}],"thu":[{"end":20,"start":11}],"tue":[{"end":20,"start":11}],"wed":[{"end":20,"start":11}]},"id":"QUlUfBpRsIF0UwimzzvI","images":{"hero":"https://firebasestorage.googleapis.com/v0/b/nextgenkitchens-e9608.appspot.com/o/restaurantManagerUploads%2Fhero%2F2024-07-10T15-35-41.981Z-h1f5z3?alt=media&token=2b86eab7-9666-43d9-bc8d-a535953bea75","logo":"https://firebasestorage.googleapis.com/v0/b/nextgenkitchens-e9608.appspot.com/o/restaurantManagerUploads%2Flogo%2F2024-07-10T15-34-35.985Z-6mj3eb?alt=media&token=cf6b7d4f-0618-4a91-b806-027b3c188103"},"isDeleted":false,"isEnabled":true,"isSnoozed":false,"menus":["DefaultMenu-QUlUfBpRsIF0UwimzzvI"],"multiIdentifier":"V6B0H3","name":"Memphis Blues BBQ","phone":"","prepTime":15,"scheduleJump":15,"snoozeUntil":0,"social":{"type":"instagram","url":""},"storeNumber":"","timezone":"America/Vancouver","__collections__":{}},"VkuCUtRSt14i7c3xJxmb":{"address":{"addressLine1":"510 Seymour Ave","addressLine2":"","city":"VANCOUVER","country":"CA","latitude":49.2837,"longitude":-123.11394,"postCode":"V6B3J5","provinceState":"BC"},"couponIds":[],"enabledFeatures":{"delivery":false,"multiLocation":false},"hours":{"fri":[],"mon":[],"sat":[],"sun":[],"thu":[],"tue":[],"wed":[]},"id":"VkuCUtRSt14i7c3xJxmb","isEnabled":true,"isSnoozed":true,"menus":["DefaultMenu-VkuCUtRSt14i7c3xJxmb"],"multiIdentifier":"V6B3J5","name":"NextGen Kitchens","phone":"","prepTime":15,"scheduleJump":15,"snoozeUntil":null,"social":{"type":"instagram","url":""},"timezone":"America/Toronto","__collections__":{}},"X5Oze6VThQFuCtjfH2QC":{"address":{"addressLine1":"1669 MACGOWAN Ave","addressLine2":"","city":"NORTH VANCOUVER","country":"CA","latitude":49.324684,"longitude":-123.11506,"postCode":"V7P2X3","provinceState":"BC"},"couponIds":[],"enabledFeatures":{"delivery":false,"multiLocation":false},"hours":{"fri":[{"end":0,"start":0}],"mon":[{"end":13,"start":8},{"end":20.25,"start":17.5}],"sat":[{"end":21,"start":6}],"sun":[{"end":22,"start":5}],"thu":[{"end":19,"start":7}],"tue":[{"end":22,"start":10}],"wed":[{"end":18,"start":13}]},"id":"X5Oze6VThQFuCtjfH2QC","isEnabled":true,"isSnoozed":true,"menus":["DefaultMenu-X5Oze6VThQFuCtjfH2QC"],"multiIdentifier":"V7P2X3","name":"The Chopped Leaf","phone":"+1 604-609-2467","prepTime":15,"scheduleJump":15,"snoozeUntil":null,"social":{"type":"instagram","url":"robson_choppedleaf"},"timezone":"America/Vancouver","__collections__":{}},"ZgS1tUHDCOKGuvbF5iQA":{"address":{"addressLine1":"488 Robson Street","addressLine2":"","city":"Vancouver","country":"CA","latitude":49.280178,"longitude":-123.117723,"postCode":"V6B2B7","provinceState":"BC"},"couponIds":[],"enabledFeatures":{"delivery":false,"multiLocation":false},"hours":{"fri":[{"end":22,"start":11}],"mon":[{"end":22,"start":11}],"sat":[{"end":20,"start":11}],"sun":[{"end":20,"start":11}],"thu":[{"end":22,"start":11}],"tue":[{"end":22,"start":11}],"wed":[{"end":22,"start":11}]},"id":"ZgS1tUHDCOKGuvbF5iQA","images":{"hero":"https://firebasestorage.googleapis.com/v0/b/nextgenkitchens-e9608.appspot.com/o/Organizations-v1%2FCA-BC-Vancouver-FoodRepublic%2FZgS1tUHDCOKGuvbF5iQA%2Fpacificpoke_hero.jpg?alt=media&token=bbd95be1-7b31-4496-b554-6677028e6c8b&_gl=1*yj1z3f*_ga*NTM5OTUxNjc0LjE2NzI3Njc5NTM.*_ga_CW55HF8NVT*MTY4NTgxNjk3Mi44OC4xLjE2ODU4MTcwOTUuMC4wLjA.","logo":"https://firebasestorage.googleapis.com/v0/b/nextgenkitchens-e9608.appspot.com/o/Organizations-v1%2FCA-BC-Vancouver-FoodRepublic%2FZgS1tUHDCOKGuvbF5iQA%2Fpacificpoke_logo.png?alt=media&token=4ac7a86f-1bad-4110-a149-dca1b79150f4&_gl=1*a3952k*_ga*NTM5OTUxNjc0LjE2NzI3Njc5NTM.*_ga_CW55HF8NVT*MTY4NTgxNjk3Mi44OC4xLjE2ODU4MTcxMDIuMC4wLjA."},"isDeleted":true,"isEnabled":true,"isSnoozed":false,"menuItemCategories":[],"menus":["DefaultMenu-ZgS1tUHDCOKGuvbF5iQA"],"multiIdentifier":"V6B2B7","name":"The Pacific Poke -- DELETED","phone":"+1 236-509-3394","prepTime":15,"scheduleJump":15,"snoozeUntil":0,"social":{"type":"instagram","url":""},"storeNumber":"","timezone":"America/Los_Angeles","__collections__":{}},"e9mbRG21deql2mf7Arjr":{"address":{"addressLine1":"488 Robson Street","addressLine2":"","city":"Vancouver","country":"CA","latitude":49.280178,"longitude":-123.117723,"postCode":"V6B2B7","provinceState":"BC"},"couponIds":[],"enabledFeatures":{"delivery":false,"multiLocation":false},"foodType":"Pizzas & Sandwiches","hours":{"fri":[{"end":"21","start":11}],"mon":[{"end":"21","start":11}],"sat":[{"end":"18","start":11}],"sun":[{"end":"18","start":11}],"thu":[{"end":"21","start":11}],"tue":[{"end":"21","start":11}],"wed":[{"end":"21","start":11}]},"id":"e9mbRG21deql2mf7Arjr","images":{"hero":"https://firebasestorage.googleapis.com/v0/b/nextgenkitchens-e9608.appspot.com/o/images%2Ffoodrepublic%2FOneSpot_Hero.jpg?alt=media&token=eb83bdb5-c8da-4592-93d9-6d12b8ac9a4d","logo":"https://firebasestorage.googleapis.com/v0/b/nextgenkitchens-e9608.appspot.com/o/images%2FMesa%20de%20trabajo%203-8.png?alt=media&token=fc42e9da-8c4b-46bf-bf6c-680c8aa9b4ff"},"isDeleted":true,"isEnabled":false,"isSnoozed":false,"menuItemCategories":[],"menus":["DefaultMenu-e9mbRG21deql2mf7Arjr"],"multiIdentifier":"V6B2B7","name":"The One Spot","phone":"","prepTime":10,"scheduleJump":15,"snoozeUntil":-1,"social":{"handle":"","type":"instagram","url":""},"storeNumber":"","timezone":"America/Vancouver","__collections__":{}},"iLHrwcK1yFlTNEYWrKsg":{"address":{"addressLine1":"1669 MACGOWAN Ave","addressLine2":"","city":"NORTH VANCOUVER","country":"CA","latitude":49.324684,"longitude":-123.11506,"postCode":"V7P2X3","provinceState":"BC"},"couponIds":[],"enabledFeatures":{"delivery":false,"multiLocation":false},"hours":{"fri":[{"end":0,"start":0}],"mon":[{"end":13,"start":8},{"end":20.25,"start":17.5}],"sat":[{"end":21,"start":6}],"sun":[{"end":22,"start":5}],"thu":[{"end":19,"start":7}],"tue":[{"end":22,"start":10}],"wed":[{"end":18,"start":13}]},"id":"iLHrwcK1yFlTNEYWrKsg","isEnabled":true,"isSnoozed":true,"menus":["DefaultMenu-iLHrwcK1yFlTNEYWrKsg"],"multiIdentifier":"V7P2X3","name":"The Chopped Leaf","phone":"+1 604-609-2467","prepTime":15,"scheduleJump":15,"snoozeUntil":null,"social":{"type":"instagram","url":"robson_choppedleaf"},"timezone":"America/Vancouver","__collections__":{}},"jDwdRXQkNzrBsZrv57sy":{"address":{"addressLine1":"510 Seymour Ave","addressLine2":"","city":"VANCOUVER","country":"CA","latitude":49.2837,"longitude":-123.11394,"postCode":"V6B3J5","provinceState":"BC"},"couponIds":[],"enabledFeatures":{"delivery":false,"multiLocation":false},"hours":{"fri":[],"mon":[],"sat":[],"sun":[],"thu":[],"tue":[],"wed":[]},"id":"jDwdRXQkNzrBsZrv57sy","isEnabled":true,"isSnoozed":true,"menus":["DefaultMenu-jDwdRXQkNzrBsZrv57sy"],"multiIdentifier":"V6B3J5","name":"NextGen Kitchens","phone":"","prepTime":15,"scheduleJump":15,"snoozeUntil":null,"social":{"type":"instagram","url":""},"timezone":"America/Toronto","__collections__":{}},"jSLyY08ClyXlZ146zAiV":{"address":{"addressLine1":"1669 MACGOWAN Ave","addressLine2":"","city":"NORTH VANCOUVER","country":"CA","latitude":49.324684,"longitude":-123.11506,"postCode":"V7P2X3","provinceState":"BC"},"couponIds":[],"enabledFeatures":{"delivery":false,"multiLocation":false},"hours":{"fri":[{"end":0,"start":0}],"mon":[{"end":13,"start":8},{"end":20.25,"start":17.5}],"sat":[{"end":21,"start":6}],"sun":[{"end":22,"start":5}],"thu":[{"end":19,"start":7}],"tue":[{"end":22,"start":10}],"wed":[{"end":18,"start":13}]},"id":"jSLyY08ClyXlZ146zAiV","isEnabled":true,"isSnoozed":true,"menus":["DefaultMenu-jSLyY08ClyXlZ146zAiV"],"multiIdentifier":"V7P2X3","name":"The Chopped Leaf","phone":"+1 604-609-2467","prepTime":15,"scheduleJump":15,"snoozeUntil":null,"social":{"type":"instagram","url":"robson_choppedleaf"},"timezone":"America/Vancouver","__collections__":{}},"l9GZ3GBkU2y3U040uvIz":{"address":{"addressLine1":"1669 MACGOWAN Ave","addressLine2":"","city":"NORTH VANCOUVER","country":"CA","latitude":49.324684,"longitude":-123.11506,"postCode":"V7P2X3","provinceState":"BC"},"couponIds":[],"enabledFeatures":{"delivery":false,"multiLocation":false},"hours":{"fri":[{"end":0,"start":0}],"mon":[{"end":13,"start":8},{"end":20.25,"start":17.5}],"sat":[{"end":21,"start":6}],"sun":[{"end":22,"start":5}],"thu":[{"end":19,"start":7}],"tue":[{"end":22,"start":10}],"wed":[{"end":18,"start":13}]},"id":"l9GZ3GBkU2y3U040uvIz","isEnabled":true,"isSnoozed":true,"menus":["DefaultMenu-l9GZ3GBkU2y3U040uvIz"],"multiIdentifier":"V7P2X3","name":"The Chopped Leaf","phone":"+1 604-609-2467","prepTime":15,"scheduleJump":15,"snoozeUntil":null,"social":{"type":"instagram","url":"robson_choppedleaf"},"timezone":"America/Vancouver","__collections__":{}},"m2hsdxWXvbwuPCdB4hot":{"address":{"addressLine1":"1669 MACGOWAN Ave","addressLine2":"","city":"NORTH VANCOUVER","country":"CA","latitude":49.324684,"longitude":-123.11506,"postCode":"V7P2X3","provinceState":"BC"},"couponIds":[],"enabledFeatures":{"delivery":false,"multiLocation":false},"hours":{"fri":[{"end":0,"start":0}],"mon":[{"end":13,"start":8},{"end":20.25,"start":17.5}],"sat":[{"end":21,"start":6}],"sun":[{"end":22,"start":5}],"thu":[{"end":19,"start":7}],"tue":[{"end":22,"start":10}],"wed":[{"end":18,"start":13}]},"id":"m2hsdxWXvbwuPCdB4hot","isEnabled":true,"isSnoozed":true,"menus":["DefaultMenu-m2hsdxWXvbwuPCdB4hot"],"multiIdentifier":"V7P2X3","name":"The Chopped Leaf","phone":"+1 604-609-2467","prepTime":15,"scheduleJump":15,"snoozeUntil":null,"social":{"type":"instagram","url":"robson_choppedleaf"},"timezone":"America/Vancouver","__collections__":{}},"nEA0ihyqKotBMKtQXY3a":{"address":{"addressLine1":"488 Robson Street","addressLine2":"","city":"Vancouver","country":"CA","latitude":49.280178,"longitude":-123.117723,"postCode":"V6B2B7","provinceState":"BC"},"couponIds":[],"enabledFeatures":{"delivery":false,"multiLocation":false},"hours":{"fri":[],"mon":[],"sat":[],"sun":[],"thu":[],"tue":[],"wed":[]},"id":"nEA0ihyqKotBMKtQXY3a","images":{"hero":"https://firebasestorage.googleapis.com/v0/b/nextgenkitchens-e9608.appspot.com/o/Organizations-v1%2FCA-BC-Vancouver-FoodRepublic%2FZgS1tUHDCOKGuvbF5iQA%2Fpacificpoke_hero.jpg?alt=media&token=bbd95be1-7b31-4496-b554-6677028e6c8b&_gl=1*yj1z3f*_ga*NTM5OTUxNjc0LjE2NzI3Njc5NTM.*_ga_CW55HF8NVT*MTY4NTgxNjk3Mi44OC4xLjE2ODU4MTcwOTUuMC4wLjA.","logo":"https://firebasestorage.googleapis.com/v0/b/nextgenkitchens-e9608.appspot.com/o/restaurantManagerUploads%2Flogo%2F2024-07-08T16-36-20.847Z-g5pmt2?alt=media&token=e26daadd-3ee2-42af-9ec0-82d410be1c67"},"isDeleted":false,"isEnabled":true,"isSnoozed":false,"menus":["DefaultMenu-nEA0ihyqKotBMKtQXY3a"],"multiIdentifier":"V6B2B7","name":"The Pacific Poke","phone":"+1 236-509-3394","prepTime":15,"scheduleJump":15,"snoozeUntil":-1,"social":{"type":"instagram","url":""},"storeNumber":"","timezone":"America/Los_Angeles","__collections__":{}},"nR4B1oLNRMZEWV8O3oDH":{"address":{"addressLine1":"1669 MACGOWAN Ave","addressLine2":"","city":"NORTH VANCOUVER","country":"CA","latitude":49.324684,"longitude":-123.11506,"postCode":"V7P2X3","provinceState":"BC"},"couponIds":[],"enabledFeatures":{"delivery":false,"multiLocation":false},"hours":{"fri":[{"end":0,"start":0}],"mon":[{"end":13,"start":8},{"end":20.25,"start":17.5}],"sat":[{"end":21,"start":6}],"sun":[{"end":22,"start":5}],"thu":[{"end":19,"start":7}],"tue":[{"end":22,"start":10}],"wed":[{"end":18,"start":13}]},"id":"nR4B1oLNRMZEWV8O3oDH","isEnabled":true,"isSnoozed":true,"menus":["DefaultMenu-nR4B1oLNRMZEWV8O3oDH"],"multiIdentifier":"V7P2X3","name":"The Chopped Leaf","phone":"+1 604-609-2467","prepTime":15,"scheduleJump":15,"snoozeUntil":null,"social":{"type":"instagram","url":"robson_choppedleaf"},"timezone":"America/Vancouver","__collections__":{}},"oFhuxvCfaEJhHdNHk8YS":{"address":{"addressLine1":"","addressLine2":"","city":"","country":"","latitude":"","longitude":"","postCode":"","provinceState":""},"enabledFeatures":{"delivery":false,"multiLocation":false},"hours":{},"id":"oFhuxvCfaEJhHdNHk8YS","images":{"hero":"","logo":""},"isDeleted":true,"isEnabled":true,"name":"The Pacific Poke","prepTime":"","social":{"handle":"","type":"","url":""},"socialTypes":[{"id":"facebook","name":"Facebook"},{"id":"twitter","name":"Twitter"},{"id":"instagram","name":"Instagram"}],"storeNumber":"","__collections__":{}},"pcc0oIYIKKnY3PXpGnpq":{"address":{"addressLine1":"1669 MACGOWAN Ave","addressLine2":"","city":"NORTH VANCOUVER","country":"CA","latitude":49.324684,"longitude":-123.11506,"postCode":"V7P2X3","provinceState":"BC"},"couponIds":[],"enabledFeatures":{"delivery":false,"multiLocation":false},"hours":{"fri":[{"end":0,"start":0}],"mon":[{"end":13,"start":8},{"end":20.25,"start":17.5}],"sat":[{"end":21,"start":6}],"sun":[{"end":22,"start":5}],"thu":[{"end":19,"start":7}],"tue":[{"end":22,"start":10}],"wed":[{"end":18,"start":13}]},"id":"pcc0oIYIKKnY3PXpGnpq","isEnabled":true,"isSnoozed":true,"menus":["DefaultMenu-pcc0oIYIKKnY3PXpGnpq"],"multiIdentifier":"V7P2X3","name":"The Chopped Leaf","phone":"+1 604-609-2467","prepTime":15,"scheduleJump":15,"snoozeUntil":null,"social":{"type":"instagram","url":"robson_choppedleaf"},"timezone":"America/Vancouver","__collections__":{}},"tenDst9A78HX5HOp5qwv":{"address":{"addressLine1":"","addressLine2":"","city":"","country":"","latitude":"","longitude":"","postCode":"","provinceState":""},"enabledFeatures":{"delivery":false,"multiLocation":false},"hours":{},"id":"tenDst9A78HX5HOp5qwv","images":{"hero":"","logo":""},"isDeleted":true,"isEnabled":true,"name":"","prepTime":"","social":{"handle":"","type":"","url":""},"socialTypes":[{"id":"facebook","name":"Facebook"},{"id":"twitter","name":"Twitter"},{"id":"instagram","name":"Instagram"}],"storeNumber":"","__collections__":{}},"w8dVZbVMlMyfhqoMUOXw":{"address":{"addressLine1":"1669 MACGOWAN Ave","addressLine2":"","city":"NORTH VANCOUVER","country":"CA","latitude":49.324684,"longitude":-123.11506,"postCode":"V7P2X3","provinceState":"BC"},"couponIds":[],"enabledFeatures":{"delivery":false,"multiLocation":false},"hours":{"fri":[{"end":0,"start":0}],"mon":[{"end":13,"start":8},{"end":20.25,"start":17.5}],"sat":[{"end":21,"start":6}],"sun":[{"end":22,"start":5}],"thu":[{"end":19,"start":7}],"tue":[{"end":22,"start":10}],"wed":[{"end":18,"start":13}]},"id":"w8dVZbVMlMyfhqoMUOXw","isEnabled":true,"isSnoozed":true,"menus":["DefaultMenu-w8dVZbVMlMyfhqoMUOXw"],"multiIdentifier":"V7P2X3","name":"The Chopped Leaf","phone":"+1 604-609-2467","prepTime":15,"scheduleJump":15,"snoozeUntil":null,"social":{"type":"instagram","url":"robson_choppedleaf"},"timezone":"America/Vancouver","__collections__":{}},"w8oUWIxqjmqU8WywJ9TT":{"address":{"addressLine1":"488 Robson Street","addressLine2":"","city":"Vancouver","country":"CA","latitude":49.280178,"longitude":-123.117723,"postCode":"V6B2B7","provinceState":"BC"},"couponIds":[],"enabledFeatures":{"delivery":false,"multiLocation":false},"foodType":"Baos & Dumplings","hours":{"fri":[{"end":"21","start":11}],"mon":[{"end":"21","start":11}],"sat":[],"sun":[{"end":"18","start":11}],"thu":[{"end":"21","start":11}],"tue":[{"end":"21","start":11}],"wed":[{"end":"21","start":11}]},"id":"w8oUWIxqjmqU8WywJ9TT","images":{"hero":"https://firebasestorage.googleapis.com/v0/b/nextgenkitchens-e9608.appspot.com/o/images%2FWowBao_Doordash_Hero.png?alt=media&token=8b7ef235-af67-47ee-aefe-1389a1b81c30","logo":"https://firebasestorage.googleapis.com/v0/b/nextgenkitchens-e9608.appspot.com/o/images%2FLogo-WowBao.png?alt=media&token=baf20ba9-d7c5-47fe-9bd6-49a6bbac3a5c"},"isDeleted":true,"isEnabled":false,"isSnoozed":false,"menuItemCategories":[],"menus":["DefaultMenu-w8oUWIxqjmqU8WywJ9TT"],"multiIdentifier":"V6B2B7","name":"Wow Bao","phone":"","prepTime":15,"scheduleJump":15,"snoozeUntil":-1,"social":{"handle":"","type":"instagram","url":""},"storeNumber":"","timezone":"America/Vancouver","__collections__":{}},"wEuBBCc9bTP5LbiCb8Uo":{"address":{"addressLine1":"488 Robson Street","addressLine2":"","city":"Vancouver","country":"CA","latitude":49.280178,"longitude":-123.117723,"postCode":"V6B2B7","provinceState":"BC"},"couponIds":[],"enabledFeatures":{"delivery":false,"multiLocation":false},"foodType":"Salads & Smoothies","hours":{"fri":[],"mon":[],"sat":[],"sun":[],"thu":[],"tue":[],"wed":[]},"id":"wEuBBCc9bTP5LbiCb8Uo","images":{"hero":"https://firebasestorage.googleapis.com/v0/b/nextgenkitchens-e9608.appspot.com/o/images%2Ffoodrepublic%2FRadSalad_Hero.jpg?alt=media&token=cd4ae9e2-0080-4fff-8ad7-fdae0d98cf34","logo":"https://firebasestorage.googleapis.com/v0/b/nextgenkitchens-e9608.appspot.com/o/images%2FLogosRM-1_Mesa%20de%20trabajo%201.png?alt=media&token=5ab1682b-f5f0-4887-9bd8-0c11093bb0b1"},"isDeleted":false,"isEnabled":true,"isSnoozed":false,"menuItemCategories":[],"menus":["DefaultMenu-wEuBBCc9bTP5LbiCb8Uo"],"multiIdentifier":"V6B2B7","name":"Rad Salads","onboarding":{"restaurantId":"wEuBBCc9bTP5LbiCb8Uo","steps":{"branding":{"completed":true,"restaurantType":"none","timestamp":{"__time__":"2024-08-30T17:19:40.569Z"}},"payments":{"completed":false,"timestamp":null},"restaurants":{"completed":true,"timestamp":{"__time__":"2024-08-30T17:19:37.718Z"}}}},"phone":"","prepTime":15,"scheduleJump":15,"snoozeUntil":-1,"social":{"handle":"","type":"instagram","url":""},"storeNumber":"","timezone":"America/Vancouver","__collections__":{}},"x58UtncYo6p1aLEHIknS":{"address":{"addressLine1":"","addressLine2":"","city":"","country":"","latitude":"","longitude":"","postCode":"","provinceState":""},"enabledFeatures":{"delivery":false,"multiLocation":false},"hours":{},"id":"x58UtncYo6p1aLEHIknS","images":{"hero":"","logo":""},"isDeleted":true,"isEnabled":true,"name":"Memphis Blues BBQ","prepTime":"","social":{"handle":"","type":"","url":""},"socialTypes":[{"id":"facebook","name":"Facebook"},{"id":"twitter","name":"Twitter"},{"id":"instagram","name":"Instagram"}],"storeNumber":"","__collections__":{}}}}